City_ID,City,Country,Date,Lat,Lng,Max Temp,Humidity,Cloudiness,Wind Speed,Description
0,Korla,CN,2021-08-05 20:59:04,41.7597,86.1469,81.23,27,94,17.02,overcast clouds
1,Geraldton,AU,2021-08-05 20:59:04,-28.7667,114.6,43.21,87,0,4.61,clear sky
2,Walvis Bay,NA,2021-08-05 20:59:05,-22.9575,14.5053,55.09,87,4,2.3,clear sky
3,San Jeronimo,PE,2021-08-05 20:59:05,-11.9472,-75.2829,57.9,43,70,9.78,broken clouds
4,Mataura,NZ,2021-08-05 20:59:05,-46.1927,168.8643,39.47,94,24,1.92,few clouds
5,Ribeira Grande,PT,2021-08-05 20:54:14,38.5167,-28.7,75.6,83,40,14.97,scattered clouds
6,Rikitea,PF,2021-08-05 20:59:06,-23.1203,-134.9692,73.96,75,21,16.35,few clouds
7,Hermanus,ZA,2021-08-05 20:59:07,-34.4187,19.2345,55.9,89,2,9.86,clear sky
8,Cape Town,ZA,2021-08-05 20:58:26,-33.9258,18.4232,57.61,83,0,1.99,clear sky
9,Mahalapye,BW,2021-08-05 20:59:07,-23.1041,26.8142,61.34,33,3,4.7,clear sky
10,Ejura,GH,2021-08-05 20:59:07,7.3856,-1.3562,72.23,94,100,4.81,overcast clouds
11,Fairbanks,US,2021-08-05 20:55:04,64.8378,-147.7164,79.09,52,1,5.75,clear sky
12,Bontang,ID,2021-08-05 20:59:08,0.1333,117.5,77.23,89,100,7.65,overcast clouds
13,Carnarvon,AU,2021-08-05 20:59:08,-24.8667,113.6333,51.87,33,0,11.5,clear sky
14,Hamilton,US,2021-08-05 20:58:34,39.1834,-84.5333,86.63,51,94,3.0,overcast clouds
15,Kuytun,RU,2021-08-05 20:59:09,54.3419,101.5036,58.95,83,86,4.0,overcast clouds
16,Yantal,RU,2021-08-05 20:59:09,56.8471,105.2542,53.13,98,28,2.44,scattered clouds
17,Saskylakh,RU,2021-08-05 20:59:10,71.9167,114.0833,49.93,65,11,6.26,few clouds
18,Nanortalik,GL,2021-08-05 20:59:10,60.1432,-45.2371,46.98,93,100,4.83,light rain
19,Strelka,RU,2021-08-05 20:59:11,58.0728,93.0344,58.84,98,63,1.39,light rain
20,Bluff,NZ,2021-08-05 20:59:11,-46.6,168.3333,39.79,86,76,8.12,broken clouds
21,Souillac,MU,2021-08-05 20:59:11,-20.5167,57.5167,70.18,64,75,9.22,broken clouds
22,Qaanaaq,GL,2021-08-05 20:59:11,77.484,-69.3632,46.87,60,39,1.52,scattered clouds
23,Santa Cruz,BO,2021-08-05 20:59:12,-17.8,-63.1667,85.46,28,0,6.91,clear sky
24,Port Alfred,ZA,2021-08-05 20:59:12,-33.5906,26.891,62.13,92,6,7.2,clear sky
25,Nanakuli,US,2021-08-05 20:59:12,21.3906,-158.1547,82.71,67,9,17.05,clear sky
26,Rabak,SD,2021-08-05 20:59:13,13.1809,32.74,80.67,66,61,8.1,broken clouds
27,Kavaratti,IN,2021-08-05 20:59:13,10.5669,72.642,82.18,80,100,21.03,overcast clouds
28,Alofi,NU,2021-08-05 20:59:13,-19.0595,-169.9187,71.49,88,20,1.14,few clouds
29,Tiksi,RU,2021-08-05 20:59:14,71.6872,128.8694,41.67,86,100,11.68,overcast clouds
30,Naryan-Mar,RU,2021-08-05 20:59:14,67.6713,53.087,53.02,87,100,5.64,overcast clouds
31,Tuatapere,NZ,2021-08-05 20:59:14,-46.1333,167.6833,39.81,87,35,3.47,scattered clouds
32,Provideniya,RU,2021-08-05 20:59:15,64.3833,-173.3,51.91,71,0,11.18,clear sky
33,Necochea,AR,2021-08-05 20:59:15,-38.5473,-58.7368,59.04,58,0,13.76,clear sky
34,Northam,GB,2021-08-05 20:59:15,51.0333,-4.2167,63.01,95,31,16.22,scattered clouds
35,Moerai,PF,2021-08-05 20:59:15,-22.4333,-151.3333,73.49,71,7,6.17,clear sky
36,Georgetown,MY,2021-08-05 20:58:26,5.4112,100.3354,81.9,89,20,1.01,few clouds
37,Bambous Virieux,MU,2021-08-05 20:59:16,-20.3428,57.7575,70.05,64,75,9.22,broken clouds
38,Ushuaia,AR,2021-08-05 20:59:16,-54.8,-68.3,49.62,75,75,36.82,broken clouds
39,Punta Arenas,CL,2021-08-05 20:56:46,-53.15,-70.9167,44.71,61,0,26.46,clear sky
40,Puerto Ayora,EC,2021-08-05 20:59:17,-0.7393,-90.3518,80.56,85,79,5.99,broken clouds
41,Wanning,CN,2021-08-05 20:59:17,18.8003,110.3967,80.65,82,100,10.42,overcast clouds
42,Ketchikan,US,2021-08-05 20:59:18,55.3422,-131.6461,57.69,95,100,6.51,light rain
43,Mega,ET,2021-08-05 20:59:18,4.05,38.3,62.29,53,70,10.09,broken clouds
44,Cubuk,TR,2021-08-05 20:59:19,40.2386,33.0322,76.46,33,0,5.75,clear sky
45,San Patricio,US,2021-08-05 20:59:19,28.017,-97.5169,87.67,56,100,7.96,overcast clouds
46,Upernavik,GL,2021-08-05 20:59:19,72.7868,-56.1549,45.18,64,0,7.07,clear sky
47,Sao Filipe,CV,2021-08-05 20:59:19,14.8961,-24.4956,78.39,90,98,6.24,overcast clouds
48,Kondinskoye,RU,2021-08-05 20:59:20,59.6481,67.41,60.87,95,97,8.23,light rain
49,Hobart,AU,2021-08-05 20:59:20,-42.8794,147.3294,54.05,59,20,4.0,few clouds
50,Kapaa,US,2021-08-05 20:59:20,22.0752,-159.319,82.38,80,19,3.0,light rain
51,Bredasdorp,ZA,2021-08-05 20:59:21,-34.5322,20.0403,53.28,97,54,3.2,broken clouds
52,Erenhot,CN,2021-08-05 20:59:21,43.6475,111.9767,67.51,42,8,5.79,clear sky
53,Nome,US,2021-08-05 20:59:21,64.5011,-165.4064,63.16,81,53,9.84,broken clouds
54,Luganville,VU,2021-08-05 20:59:22,-15.5333,167.1667,76.06,84,94,3.49,overcast clouds
55,Guerrero Negro,MX,2021-08-05 20:59:22,27.9769,-114.0611,81.59,56,17,11.81,few clouds
56,Lebu,CL,2021-08-05 20:59:22,-37.6167,-73.65,54.7,74,100,13.02,overcast clouds
57,Luderitz,NA,2021-08-05 20:55:13,-26.6481,15.1594,58.05,67,15,4.34,few clouds
58,Klaksvik,FO,2021-08-05 20:59:23,62.2266,-6.589,56.32,94,100,7.38,overcast clouds
59,Codrington,AU,2021-08-05 20:59:23,-38.2667,141.9667,51.31,81,100,11.34,overcast clouds
60,Benguela,AO,2021-08-05 20:59:23,-12.5763,13.4055,71.08,88,22,1.07,few clouds
61,Port Lincoln,AU,2021-08-05 20:59:24,-34.7333,135.8667,54.88,73,100,7.23,overcast clouds
62,Tromso,NO,2021-08-05 20:59:24,69.6496,18.957,53.62,87,75,4.61,broken clouds
63,Laranja Da Terra,BR,2021-08-05 20:59:24,-19.8989,-41.0567,57.51,88,67,3.94,broken clouds
64,Shelburne,CA,2021-08-05 20:59:25,44.0787,-80.2041,84.85,35,2,7.36,clear sky
65,Faanui,PF,2021-08-05 20:59:25,-16.4833,-151.75,79.16,70,33,10.2,scattered clouds
66,Coari,BR,2021-08-05 20:59:26,-4.085,-63.1414,88.41,49,78,2.1,broken clouds
67,Orai,IN,2021-08-05 20:59:26,25.9833,79.4667,80.6,88,100,4.41,overcast clouds
68,Lyudinovo,RU,2021-08-05 20:59:26,53.8664,34.4478,60.24,97,100,4.63,overcast clouds
69,Rupert,US,2021-08-05 20:59:27,42.6191,-113.6772,93.15,24,1,5.75,clear sky
70,Bama,NG,2021-08-05 20:59:27,11.5221,13.6856,77.31,77,60,10.22,light rain
71,Pevek,RU,2021-08-05 20:59:27,69.7008,170.3133,38.07,96,100,3.94,overcast clouds
72,New Norfolk,AU,2021-08-05 20:59:27,-42.7826,147.0587,53.71,63,100,11.01,light rain
73,La Trinitaria,MX,2021-08-05 20:59:28,16.1167,-92.05,74.89,58,33,2.68,scattered clouds
74,Asau,RO,2021-08-05 20:59:28,46.4333,26.4,65.39,68,98,3.24,light rain
75,Iqaluit,CA,2021-08-05 20:59:28,63.7506,-68.5145,44.33,81,90,5.01,shower rain
76,Beringovskiy,RU,2021-08-05 20:59:29,63.05,179.3167,48.4,88,100,4.92,overcast clouds
77,Atuona,PF,2021-08-05 20:59:29,-9.8,-139.0333,78.03,74,29,15.73,scattered clouds
78,Wamba,NG,2021-08-05 20:59:30,8.9333,8.6,71.2,94,77,4.03,broken clouds
79,Thompson,CA,2021-08-05 20:54:46,55.7435,-97.8558,64.56,42,75,10.36,smoke
80,Freeport,US,2021-08-05 20:59:30,40.6576,-73.5832,83.26,69,84,4.0,broken clouds
81,Podares,MK,2021-08-05 20:59:31,41.6139,22.5422,80.13,37,98,2.62,overcast clouds
82,Inta,RU,2021-08-05 20:59:31,66.0317,60.1659,57.9,97,100,19.82,overcast clouds
83,Albany,US,2021-08-05 20:59:31,42.6001,-73.9662,81.03,62,71,1.88,broken clouds
84,Esperance,AU,2021-08-05 20:59:31,-33.8667,121.9,49.84,79,0,10.85,clear sky
85,Jieshi,CN,2021-08-05 20:59:32,22.8134,115.8257,81.95,92,100,19.6,light rain
86,Vila Velha,BR,2021-08-05 20:59:32,-20.3297,-40.2925,71.55,78,75,5.75,broken clouds
87,Te Anau,NZ,2021-08-05 20:59:33,-45.4167,167.7167,37.38,95,76,1.16,broken clouds
88,Vaini,TO,2021-08-05 20:59:33,-21.2,-175.2,69.96,88,75,1.14,broken clouds
89,Waw,SS,2021-08-05 20:59:34,7.7029,27.9953,74.61,80,28,3.2,scattered clouds
90,Torbay,CA,2021-08-05 20:59:34,47.6666,-52.7314,75.97,40,75,14.97,broken clouds
91,Jamestown,US,2021-08-05 20:59:34,42.097,-79.2353,78.85,63,22,3.47,few clouds
92,Saint-Philippe,RE,2021-08-05 20:59:35,-21.3585,55.7679,65.75,80,49,13.94,light rain
93,Pangnirtung,CA,2021-08-05 20:59:36,66.1451,-65.7125,48.2,66,75,6.91,broken clouds
94,Pozoblanco,ES,2021-08-05 20:59:37,38.3791,-4.8483,79.38,19,0,4.27,clear sky
95,Mahebourg,MU,2021-08-05 20:59:37,-20.4081,57.7,70.09,64,75,9.22,broken clouds
96,Berlevag,NO,2021-08-05 20:59:38,70.8578,29.0864,53.4,87,75,4.61,broken clouds
97,Pedasi,PA,2021-08-05 20:59:38,7.5333,-80.0333,82.56,73,61,4.23,broken clouds
98,Khirkiya,IN,2021-08-05 20:59:38,22.1674,76.8605,75.43,89,100,8.23,overcast clouds
99,Airai,TL,2021-08-05 20:59:39,-8.9266,125.4092,54.37,63,81,4.12,broken clouds
100,Hilo,US,2021-08-05 20:59:39,19.7297,-155.09,81.81,87,39,4.0,scattered clouds
101,Saldanha,ZA,2021-08-05 20:59:39,-33.0117,17.9442,55.45,86,0,3.51,clear sky
102,Tateyama,JP,2021-08-05 20:59:40,34.9833,139.8667,80.62,83,33,9.06,scattered clouds
103,Lagoa,PT,2021-08-05 20:59:40,39.05,-27.9833,73.06,90,0,18.84,clear sky
104,Yellowknife,CA,2021-08-05 20:59:41,62.456,-114.3525,64.29,63,75,0.0,broken clouds
105,Beian,NO,2021-08-05 20:59:41,63.6559,9.5683,59.0,88,0,8.05,clear sky
106,Rosetta,EG,2021-08-05 20:59:41,31.4044,30.4164,84.02,76,0,4.38,clear sky
107,Aranda De Duero,ES,2021-08-05 20:59:42,41.6704,-3.6892,72.25,41,5,9.6,clear sky
108,Butaritari,KI,2021-08-05 20:59:42,3.0707,172.7902,84.07,61,12,12.82,few clouds
109,Barrow,US,2021-08-05 20:57:20,71.2906,-156.7887,39.22,83,90,19.57,overcast clouds
110,Bocas Del Toro,PA,2021-08-05 20:58:17,9.3333,-82.25,91.08,72,73,6.13,broken clouds
111,Busselton,AU,2021-08-05 20:59:43,-33.65,115.3333,50.81,81,0,5.82,clear sky
112,Gurlan,UZ,2021-08-05 20:59:43,41.8447,60.3919,80.51,22,29,10.74,scattered clouds
113,Mount Isa,AU,2021-08-05 20:59:43,-20.7333,139.5,46.17,53,25,5.75,scattered clouds
114,Dodge City,US,2021-08-05 20:59:44,37.7528,-100.0171,91.26,44,0,7.0,clear sky
115,Almaty,KZ,2021-08-05 20:59:44,43.25,76.95,66.11,45,20,4.47,few clouds
116,Asadabad,IR,2021-08-05 20:59:44,34.7824,48.1185,76.14,23,82,7.83,broken clouds
117,Xinzhi,CN,2021-08-05 20:59:45,36.4989,111.7047,75.49,62,59,1.7,broken clouds
118,Vilcun,CL,2021-08-05 20:59:45,-38.65,-72.2333,54.34,75,94,5.99,overcast clouds
119,Pozo Colorado,PY,2021-08-05 20:59:45,-23.4923,-58.7972,78.22,25,100,5.93,overcast clouds
120,Ballina,AU,2021-08-05 20:55:47,-28.8667,153.5667,46.78,87,45,5.75,scattered clouds
121,Acapulco,MX,2021-08-05 20:56:08,16.8634,-99.8901,86.04,66,90,6.67,overcast clouds
122,Gomel,BY,2021-08-05 20:59:46,52.4345,30.9754,67.98,88,0,6.71,clear sky
123,Hithadhoo,MV,2021-08-05 20:59:46,-0.6,73.0833,80.71,77,99,7.52,moderate rain
124,Bathsheba,BB,2021-08-05 20:59:46,13.2167,-59.5167,84.81,70,75,12.66,broken clouds
125,Issoudun,FR,2021-08-05 20:59:47,47.0,1.8333,64.31,88,75,12.66,broken clouds
126,Tambovka,RU,2021-08-05 20:59:47,50.0969,128.0489,60.91,98,23,8.61,few clouds
127,Maniitsoq,GL,2021-08-05 20:59:48,65.4167,-52.9,43.92,97,100,26.78,moderate rain
128,Oranjemund,NA,2021-08-05 20:59:48,-28.55,16.4333,55.27,78,3,2.59,clear sky
129,Maceio,BR,2021-08-05 20:58:39,-9.6658,-35.7353,74.64,83,40,5.75,scattered clouds
130,Sistranda,NO,2021-08-05 20:54:54,63.7256,8.834,58.89,78,100,8.1,overcast clouds
131,Acari,PE,2021-08-05 20:56:47,-15.4311,-74.6158,72.12,61,15,5.59,few clouds
132,Tasiilaq,GL,2021-08-05 20:59:49,65.6145,-37.6368,41.65,75,23,2.33,few clouds
133,Vardo,NO,2021-08-05 20:59:50,70.3705,31.1107,53.35,85,64,4.0,broken clouds
134,Arraial Do Cabo,BR,2021-08-05 20:59:50,-22.9661,-42.0278,71.56,78,40,6.91,scattered clouds
135,Kungurtug,RU,2021-08-05 20:59:50,50.5994,97.5228,50.67,95,95,0.72,overcast clouds
136,Chokurdakh,RU,2021-08-05 20:59:51,70.6333,147.9167,37.27,85,100,9.82,overcast clouds
137,Avarua,CK,2021-08-05 20:59:51,-21.2078,-159.775,77.05,65,49,6.91,scattered clouds
138,Bloomingdale,US,2021-08-05 20:59:51,27.8936,-82.2404,86.29,81,40,9.22,scattered clouds
139,Mount Gambier,AU,2021-08-05 20:59:52,-37.8333,140.7667,48.11,93,75,10.36,broken clouds
140,Fortuna,US,2021-08-05 20:59:52,40.5982,-124.1573,81.19,68,75,1.01,broken clouds
141,Brora,GB,2021-08-05 20:59:53,58.0099,-3.8518,62.85,85,100,17.47,overcast clouds
142,Znamenskoye,RU,2021-08-05 20:59:53,57.1281,73.8282,60.39,84,92,3.56,overcast clouds
143,Kaitangata,NZ,2021-08-05 20:59:53,-46.2817,169.8464,44.92,86,65,4.94,broken clouds
144,Jinchang,CN,2021-08-05 20:59:54,38.4953,102.1739,73.62,26,99,6.08,overcast clouds
145,Tuktoyaktuk,CA,2021-08-05 20:59:55,69.4541,-133.0374,57.2,82,75,12.66,broken clouds
146,Pathalgaon,IN,2021-08-05 20:59:55,22.5667,83.4667,72.5,97,76,2.89,broken clouds
147,Cotonou,BJ,2021-08-05 20:59:55,6.3654,2.4183,77.09,84,100,8.93,overcast clouds
148,Mwinilunga,ZM,2021-08-05 20:59:56,-11.7358,24.4293,58.73,34,0,2.39,clear sky
149,Amuntai,ID,2021-08-05 20:59:56,-2.4177,115.2494,73.56,99,100,1.7,overcast clouds
150,Springbok,ZA,2021-08-05 20:59:56,-29.6643,17.8865,48.72,45,0,1.81,clear sky
151,San Ignacio,BZ,2021-08-05 20:59:57,17.1561,-89.0714,93.34,59,40,6.91,thunderstorm
152,Westport,US,2021-08-05 20:59:24,41.1415,-73.3579,83.05,82,90,4.0,overcast clouds
153,San Quintin,MX,2021-08-05 20:59:57,30.4833,-115.95,74.35,70,5,11.43,clear sky
154,Norman Wells,CA,2021-08-05 20:59:58,65.282,-126.8329,62.64,67,75,12.66,smoke
155,Cross Lanes,US,2021-08-05 20:59:58,38.4204,-81.7907,88.9,58,87,5.01,overcast clouds
156,Stephenville,US,2021-08-05 20:59:58,32.2207,-98.2023,93.29,38,75,6.91,broken clouds
157,Port Elizabeth,ZA,2021-08-05 20:59:47,-33.918,25.5701,61.09,94,90,18.41,light rain
158,Sambava,MG,2021-08-05 20:59:59,-14.2667,50.1667,69.82,84,99,14.99,light rain
159,Makakilo City,US,2021-08-05 20:59:59,21.3469,-158.0858,81.28,64,12,19.95,few clouds
160,Narsaq,GL,2021-08-05 21:00:00,60.9167,-46.05,47.89,92,100,3.91,light rain
161,Jimenez,MX,2021-08-05 21:00:00,28.3333,-105.4,87.58,32,55,11.3,broken clouds
162,Severo-Kurilsk,RU,2021-08-05 21:00:00,50.6789,156.125,53.96,73,20,19.73,few clouds
163,Vila Franca Do Campo,PT,2021-08-05 21:00:01,37.7167,-25.4333,73.81,84,0,6.98,clear sky
164,Ngunguru,NZ,2021-08-05 21:00:01,-35.6167,174.5,52.16,74,100,13.44,overcast clouds
165,Longyearbyen,SJ,2021-08-05 21:00:02,78.2186,15.6401,42.64,87,75,12.66,broken clouds
166,Chuy,UY,2021-08-05 21:00:03,-33.6971,-53.4616,59.05,85,94,9.15,overcast clouds
167,Ugoofaaru,MV,2021-08-05 21:00:03,5.6667,73.0,82.18,77,100,12.44,overcast clouds
168,Turinskaya Sloboda,RU,2021-08-05 21:00:07,57.6232,64.3858,65.97,95,100,7.49,light rain
169,Richards Bay,ZA,2021-08-05 21:00:08,-28.783,32.0377,62.11,92,0,5.84,clear sky
170,Pundaguitan,PH,2021-08-05 21:00:09,6.3711,126.1689,83.55,77,100,9.26,overcast clouds
171,Vao,NC,2021-08-05 21:00:10,-22.6667,167.4833,67.32,58,73,17.63,broken clouds
172,Canandaigua,US,2021-08-05 20:59:04,42.8742,-77.288,81.25,50,24,2.33,few clouds
173,Nikolskoye,RU,2021-08-05 21:00:11,59.7035,30.7861,60.78,85,99,1.52,overcast clouds
174,Mitu,CO,2021-08-05 20:59:13,1.1983,-70.1733,70.27,99,100,0.96,overcast clouds
175,Iaciara,BR,2021-08-05 21:00:12,-14.0958,-46.6317,78.37,26,52,5.35,broken clouds
176,Pochutla,MX,2021-08-05 21:00:12,15.7432,-96.4661,82.81,60,82,6.53,broken clouds
177,Bajil,YE,2021-08-05 21:00:13,15.0584,43.2851,90.79,55,98,5.21,overcast clouds
178,Antalaha,MG,2021-08-05 21:00:14,-14.9003,50.2788,68.74,85,98,10.85,overcast clouds
179,Bouake,CI,2021-08-05 21:00:15,7.6895,-5.0218,71.73,90,39,8.16,scattered clouds
180,Merauke,ID,2021-08-05 21:00:15,-8.4667,140.3333,73.31,87,95,8.68,overcast clouds
181,Saint George,US,2021-08-05 21:00:13,37.1041,-113.5841,111.67,10,0,1.01,clear sky
182,Port Macquarie,AU,2021-08-05 21:00:16,-31.4333,152.9167,41.9,80,0,6.33,clear sky
183,Kavieng,PG,2021-08-05 21:00:17,-2.5744,150.7967,82.26,71,100,2.59,light rain
184,Karangampel,ID,2021-08-05 21:00:17,-6.4622,108.4519,78.71,79,78,9.48,broken clouds
185,Ghanzi,BW,2021-08-05 21:00:17,-21.5667,21.7833,60.58,30,0,7.76,clear sky
186,Avera,US,2021-08-05 21:00:18,33.194,-82.5271,88.75,35,11,6.98,few clouds
187,Sitka,US,2021-08-05 20:56:20,57.0531,-135.33,63.25,77,97,1.86,light rain
188,Goderich,CA,2021-08-05 20:55:32,43.7501,-81.7165,82.04,47,10,10.36,clear sky
189,Bay Roberts,CA,2021-08-05 21:00:18,47.5999,-53.2648,76.24,52,54,10.04,broken clouds
190,Rumoi,JP,2021-08-05 21:00:19,43.9344,141.6428,74.37,90,23,5.1,few clouds
191,Sovetskiy,RU,2021-08-05 21:00:19,61.3614,63.5842,63.61,98,100,4.36,moderate rain
192,Dingle,PH,2021-08-05 21:00:19,10.9995,122.6711,76.73,87,76,7.09,broken clouds
193,Puerto Escondido,MX,2021-08-05 21:00:20,15.85,-97.0667,85.17,74,100,11.18,overcast clouds
194,Castro,BR,2021-08-05 21:00:21,-24.7911,-50.0119,53.85,79,100,6.53,overcast clouds
195,Odienne,CI,2021-08-05 21:00:21,9.51,-7.5692,70.81,96,100,4.5,moderate rain
196,Raudeberg,NO,2021-08-05 21:00:22,61.9875,5.1352,64.0,76,67,5.35,broken clouds
197,Tari,NG,2021-08-05 21:00:23,12.4086,4.4914,79.75,75,95,9.69,light rain
198,Japura,ID,2021-08-05 21:00:23,-0.3167,102.35,75.51,90,100,2.19,overcast clouds
199,Aktash,RU,2021-08-05 21:00:24,50.3,87.7333,40.8,94,89,2.57,overcast clouds
200,Quatre Cocos,MU,2021-08-05 21:00:25,-20.2078,57.7625,67.08,69,91,13.22,overcast clouds
201,Jiayuguan,CN,2021-08-05 21:00:25,39.8167,98.3,72.48,18,97,1.7,overcast clouds
202,Supaul,IN,2021-08-05 21:00:25,26.1167,86.6,83.48,82,100,1.54,overcast clouds
203,Portland,US,2021-08-05 20:58:29,45.5234,-122.6762,89.2,39,12,1.99,few clouds
204,Hasaki,JP,2021-08-05 21:00:26,35.7333,140.8333,77.4,81,35,5.14,scattered clouds
205,Cullman,US,2021-08-05 21:00:27,34.1748,-86.8436,88.29,60,1,3.44,clear sky
206,Mar Del Plata,AR,2021-08-05 21:00:27,-38.0023,-57.5575,57.09,1,0,1.99,clear sky
207,Melita,CA,2021-08-05 21:00:27,49.2681,-100.9967,80.19,38,54,9.86,broken clouds
208,Naze,JP,2021-08-05 21:00:28,28.3667,129.4833,77.56,92,97,27.94,overcast clouds
209,Roebourne,AU,2021-08-05 21:00:29,-20.7833,117.1333,67.15,27,22,19.46,few clouds
210,Zeya,RU,2021-08-05 20:56:38,53.75,127.2667,57.04,98,100,4.54,light rain
211,Tautira,PF,2021-08-05 21:00:31,-17.7333,-149.15,82.42,77,86,12.57,overcast clouds
212,Poli,TZ,2021-08-05 21:00:31,-3.3333,36.8,56.52,83,53,4.61,broken clouds
213,Batagay-Alyta,RU,2021-08-05 21:00:32,67.8006,130.4114,41.88,86,100,15.73,overcast clouds
214,Tilichiki,RU,2021-08-05 21:00:33,60.4667,166.1,47.26,86,100,29.01,light rain
215,East London,ZA,2021-08-05 21:00:33,-33.0153,27.9116,65.39,86,75,3.65,broken clouds
216,Trinidad,BO,2021-08-05 21:00:33,-14.8333,-64.9,90.88,23,0,2.95,clear sky
217,Srikakulam,IN,2021-08-05 20:59:58,18.3,83.9,80.89,72,62,6.89,broken clouds
218,Ivybridge,GB,2021-08-05 21:00:34,50.3904,-3.9191,62.85,93,76,17.81,broken clouds
219,Grindavik,IS,2021-08-05 21:00:35,63.8424,-22.4338,57.56,94,75,8.05,broken clouds
220,Taltal,CL,2021-08-05 21:00:35,-25.4,-70.4833,63.1,61,10,5.19,clear sky
221,Dubbo,AU,2021-08-05 21:00:36,-32.25,148.6167,44.73,93,90,6.91,overcast clouds
222,Moron,AR,2021-08-05 20:58:55,-34.6534,-58.6198,57.09,90,0,3.0,clear sky
223,Kruisfontein,ZA,2021-08-05 21:00:37,-34.0033,24.7314,55.89,97,100,1.77,light rain
224,Margate,GB,2021-08-05 21:00:38,51.3813,1.3862,64.04,95,100,1.99,heavy intensity rain
225,Namatanai,PG,2021-08-05 21:00:38,-3.6667,152.4333,78.31,84,91,9.17,light rain
226,Ormara,PK,2021-08-05 21:00:39,25.2088,64.6357,80.24,88,36,9.22,scattered clouds
227,Qasigiannguit,GL,2021-08-05 21:00:40,68.8193,-51.1922,57.45,71,100,16.22,overcast clouds
228,Mukerian,IN,2021-08-05 21:00:41,31.9506,75.6158,81.27,79,74,4.52,broken clouds
229,Hauterive,FR,2021-08-05 21:00:41,46.0901,3.4459,68.76,85,100,5.68,overcast clouds
230,Quelimane,MZ,2021-08-05 21:00:41,-17.8786,36.8883,66.69,91,3,1.77,clear sky
231,Gunzenhausen,DE,2021-08-05 21:00:42,49.1,10.75,63.48,95,97,5.88,light rain
232,Mlimba,TZ,2021-08-05 21:00:43,-8.8,35.8167,68.31,75,27,2.95,scattered clouds
233,Tual,ID,2021-08-05 21:00:43,-5.6667,132.75,79.81,80,93,20.47,overcast clouds
234,Asyut,EG,2021-08-05 21:00:44,27.181,31.1837,94.19,13,0,6.17,clear sky
235,Rockport,US,2021-08-05 20:59:40,28.0206,-97.0544,87.84,80,1,4.0,clear sky
236,Port Blair,IN,2021-08-05 21:00:45,11.6667,92.75,82.0,85,100,20.27,overcast clouds
237,Kapoeta,SS,2021-08-05 21:00:45,4.7717,33.5903,79.68,43,89,7.76,overcast clouds
238,Ayan,RU,2021-08-05 21:00:46,56.45,138.1667,54.88,91,100,11.59,light rain
239,Paragominas,BR,2021-08-05 21:00:46,-2.9667,-47.4833,82.98,48,77,4.36,broken clouds
240,Isangel,VU,2021-08-05 21:00:47,-19.55,169.2667,74.32,73,82,6.11,broken clouds
241,Mnogovershinnyy,RU,2021-08-05 21:00:48,53.9353,139.9242,50.63,97,100,4.09,overcast clouds
242,Broome,US,2021-08-05 21:00:49,42.2506,-75.833,82.06,56,75,1.01,broken clouds
243,Grand Gaube,MU,2021-08-05 21:00:49,-20.0064,57.6608,67.37,69,76,8.01,broken clouds
244,Palmer,US,2021-08-05 20:58:15,42.1584,-72.3287,72.95,76,75,4.61,broken clouds
245,Dikson,RU,2021-08-05 21:00:50,73.5069,80.5464,51.12,87,0,3.71,clear sky
246,Coihaique,CL,2021-08-05 21:00:50,-45.5752,-72.0662,42.75,89,66,8.55,light rain
247,Kaputa,ZM,2021-08-05 21:00:51,-8.4689,29.6619,71.76,51,1,2.1,clear sky
248,Mangrol,IN,2021-08-05 21:00:52,21.1167,70.1167,81.09,81,100,15.23,overcast clouds
249,Caernarfon,GB,2021-08-05 21:00:53,53.1413,-4.2702,62.33,45,90,10.36,overcast clouds
250,Villarrica,PY,2021-08-05 21:00:54,-25.75,-56.4333,69.26,50,100,4.65,overcast clouds
251,Kondopoga,RU,2021-08-05 21:00:54,62.2057,34.2614,51.49,75,11,2.26,few clouds
252,Muros,ES,2021-08-05 21:00:55,42.7762,-9.0603,65.23,88,91,5.48,overcast clouds
253,Ushtobe,KZ,2021-08-05 21:00:55,45.2514,77.9838,71.24,41,2,16.35,clear sky
254,Santa Maria,BR,2021-08-05 21:00:57,-29.6842,-53.8069,62.26,80,100,5.1,overcast clouds
255,La Ronge,CA,2021-08-05 21:00:57,55.1001,-105.2842,67.12,58,70,4.81,broken clouds
256,Tadine,NC,2021-08-05 21:00:59,-21.55,167.8833,68.76,62,94,17.27,overcast clouds
257,Januaria,BR,2021-08-05 21:01:01,-15.4833,-44.3667,74.23,37,28,6.78,scattered clouds
258,Kibre Mengist,ET,2021-08-05 21:01:04,5.8833,38.9833,59.47,76,72,1.52,broken clouds
259,Paita,PE,2021-08-05 21:01:04,-5.0892,-81.1144,70.23,73,1,17.9,clear sky
260,Bilibino,RU,2021-08-05 21:01:04,68.0546,166.4372,55.18,68,21,4.65,few clouds
261,Santa Rosa,PH,2021-08-05 21:01:05,14.3122,121.1114,83.1,85,91,7.54,overcast clouds
262,Cherskiy,RU,2021-08-05 21:01:05,68.75,161.3,50.54,72,61,2.39,broken clouds
263,Rio Brilhante,BR,2021-08-05 21:01:05,-21.8019,-54.5464,75.56,25,90,4.27,overcast clouds
264,Isiro,CD,2021-08-05 21:01:05,2.7739,27.616,67.46,98,64,0.96,light rain
265,Ponta Do Sol,PT,2021-08-05 21:01:06,32.6667,-17.1,75.7,83,31,2.28,scattered clouds
266,Mungeli,IN,2021-08-05 21:01:06,22.0667,81.6833,77.04,88,93,7.16,overcast clouds
267,Shimoda,JP,2021-08-05 21:01:07,34.6667,138.95,79.11,87,38,10.54,moderate rain
268,Tachov,CZ,2021-08-05 21:01:07,49.7953,12.6337,58.64,94,12,2.64,few clouds
269,Pingtung,TW,2021-08-05 21:01:07,22.6714,120.4881,83.82,92,100,11.03,heavy intensity rain
270,Maldonado,UY,2021-08-05 21:01:08,-34.6667,-54.9167,61.23,87,77,9.98,broken clouds
271,Ilulissat,GL,2021-08-05 21:01:08,69.2167,-51.1,57.22,44,75,16.11,broken clouds
272,Katangli,RU,2021-08-05 21:01:08,51.7102,143.2326,52.66,97,100,13.27,overcast clouds
273,Englewood,US,2021-08-05 20:57:15,39.6478,-104.9878,94.41,19,0,3.0,clear sky
274,Chake Chake,TZ,2021-08-05 21:01:09,-5.2459,39.7666,72.52,84,5,8.14,clear sky
275,Riyadh,SA,2021-08-05 20:58:57,24.6877,46.7219,96.94,11,9,8.7,clear sky
276,Ishigaki,JP,2021-08-05 20:56:28,24.3448,124.1572,82.94,86,100,20.92,overcast clouds
277,Buala,SB,2021-08-05 21:01:10,-8.145,159.5921,79.72,79,87,9.86,light rain
278,Samana,DO,2021-08-05 21:00:13,19.2056,-69.3369,83.84,73,97,9.69,overcast clouds
279,Rawson,AR,2021-08-05 21:01:10,-43.3002,-65.1023,68.74,23,96,9.37,overcast clouds
280,Sur,OM,2021-08-05 21:01:11,22.5667,59.5289,92.39,47,49,10.96,scattered clouds
281,Touros,BR,2021-08-05 21:01:11,-5.1989,-35.4608,77.36,78,48,16.91,scattered clouds
282,Muddebihal,IN,2021-08-05 21:01:12,16.3333,76.1333,74.68,78,94,15.59,overcast clouds
283,Maykor,RU,2021-08-05 21:01:12,59.0059,55.88,54.36,96,14,6.24,few clouds
284,Ahar,IR,2021-08-05 21:01:12,38.4774,47.0699,70.74,35,2,3.49,clear sky
285,Las Cruces,US,2021-08-05 21:01:13,32.3123,-106.7783,96.06,26,1,1.99,clear sky
286,Andenes,NO,2021-08-05 21:01:15,69.3143,16.1194,53.58,94,90,5.75,overcast clouds
287,Amurrio,ES,2021-08-05 21:01:15,43.05,-3.0,66.47,94,91,3.6,overcast clouds
288,Bethel,US,2021-08-05 21:01:08,41.3712,-73.414,82.02,74,88,4.34,overcast clouds
289,Sterling,US,2021-08-05 20:57:26,39.0062,-77.4286,90.0,44,1,1.01,clear sky
290,Atar,MR,2021-08-05 21:01:15,20.5169,-13.0499,101.34,13,2,10.4,clear sky
291,Mayor Pablo Lagerenza,PY,2021-08-05 21:01:16,-19.9309,-60.7718,84.67,23,81,3.6,broken clouds
292,Salalah,OM,2021-08-05 21:00:20,17.0151,54.0924,76.6,89,93,8.32,overcast clouds
293,Tortoli,IT,2021-08-05 21:01:16,39.9256,9.6572,79.99,60,100,4.18,overcast clouds
294,Katsuura,JP,2021-08-05 21:01:03,35.1333,140.3,80.71,85,63,7.65,broken clouds
295,Vanavara,RU,2021-08-05 21:01:17,60.34,102.2797,60.75,71,82,5.01,broken clouds
296,Khatanga,RU,2021-08-05 21:01:17,71.9667,102.5,58.15,45,63,9.46,broken clouds
297,Pringsewu,ID,2021-08-05 21:01:18,-5.3582,104.9744,72.12,96,93,2.04,overcast clouds
298,Puerto Maldonado,PE,2021-08-05 21:01:18,-12.6,-69.1833,91.58,23,0,1.28,clear sky
299,Cidreira,BR,2021-08-05 21:01:18,-30.1811,-50.2056,61.36,88,97,16.26,moderate rain
300,Kampot,KH,2021-08-05 21:01:19,10.6167,104.1833,82.45,84,100,8.59,overcast clouds
301,Bairnsdale,AU,2021-08-05 21:01:19,-37.8333,147.6167,53.71,86,21,7.47,few clouds
302,Madison,US,2021-08-05 21:00:12,34.7334,-86.5667,88.34,64,75,1.01,broken clouds
303,Jacqueville,CI,2021-08-05 21:01:20,5.2052,-4.4146,78.71,87,94,11.45,light rain
304,Sisimiut,GL,2021-08-05 21:01:20,66.9395,-53.6735,46.22,89,100,16.8,moderate rain
305,Biltine,TD,2021-08-05 21:01:21,14.5333,20.9167,82.38,62,99,11.25,overcast clouds
306,Ikongo,MG,2021-08-05 21:01:21,-21.8833,47.4333,58.59,96,83,2.19,broken clouds
307,Vagur,FO,2021-08-05 21:01:21,61.4732,-6.8119,53.89,91,100,10.13,overcast clouds
308,Alyangula,AU,2021-08-05 21:01:22,-13.8483,136.4192,72.05,50,90,17.74,overcast clouds
309,Lerik,AZ,2021-08-05 21:01:22,38.7726,48.4128,69.94,35,0,2.66,clear sky
310,Bumba,CD,2021-08-05 21:01:22,2.1833,22.4667,72.07,92,38,3.44,light rain
311,Lorengau,PG,2021-08-05 21:01:23,-2.0226,147.2712,80.33,82,100,7.23,overcast clouds
312,Svetlogorsk,BY,2021-08-05 21:01:23,52.6333,29.7333,62.87,78,79,7.61,broken clouds
313,Mocuba,MZ,2021-08-05 21:01:23,-16.8392,36.9856,64.67,93,16,2.64,few clouds
314,Port-Gentil,GA,2021-08-05 21:01:24,-0.7193,8.7815,77.77,79,90,11.25,overcast clouds
315,Manta,EC,2021-08-05 21:01:24,-0.95,-80.7333,76.08,75,17,15.66,few clouds
316,La Asuncion,VE,2021-08-05 21:01:24,11.0333,-63.8628,91.13,52,0,13.8,clear sky
317,Yorkton,CA,2021-08-05 21:01:24,51.2167,-102.4677,80.19,34,31,7.2,scattered clouds
318,Lochem,NL,2021-08-05 21:01:25,52.1592,6.4111,66.11,85,86,5.35,overcast clouds
319,Ostrovnoy,RU,2021-08-05 21:01:25,68.0531,39.5131,51.21,79,100,4.45,overcast clouds
320,Deputatskiy,RU,2021-08-05 21:01:25,69.3,139.9,37.49,95,100,5.64,overcast clouds
321,Kahului,US,2021-08-05 21:01:26,20.8947,-156.47,83.97,80,24,13.0,few clouds
322,Shangzhi,CN,2021-08-05 21:01:26,45.2167,127.9667,64.53,97,100,5.57,heavy intensity rain
323,Kodiak,US,2021-08-05 21:01:26,57.79,-152.4072,53.8,93,100,2.91,overcast clouds
324,Farafangana,MG,2021-08-05 21:01:27,-22.8167,47.8333,65.43,86,56,8.86,light rain
325,Conde,BR,2021-08-05 21:01:27,-7.2597,-34.9075,73.45,82,25,13.42,scattered clouds
326,Namibe,AO,2021-08-05 21:01:28,-15.1961,12.1522,68.27,82,0,4.94,clear sky
327,Mananara,MG,2021-08-05 21:01:28,-16.1667,49.7667,67.03,82,100,6.62,overcast clouds
328,Umtata,ZA,2021-08-05 21:01:28,-31.5889,28.7844,61.63,40,92,4.0,overcast clouds
329,Dali,CN,2021-08-05 21:01:29,25.7,100.1833,62.92,88,36,1.3,scattered clouds
330,Maturin,VE,2021-08-05 21:01:29,9.75,-63.1767,86.22,64,5,4.14,clear sky
331,Hami,CN,2021-08-05 21:01:29,42.8,93.45,84.02,20,95,8.39,overcast clouds
332,Garowe,SO,2021-08-05 21:01:30,8.4054,48.4845,80.2,51,29,29.1,scattered clouds
333,Bukachacha,RU,2021-08-05 21:01:30,52.9833,116.9167,55.89,94,99,1.48,overcast clouds
334,High Rock,BS,2021-08-05 21:01:31,26.6208,-78.2833,84.4,72,65,10.54,broken clouds
335,Nelson Bay,AU,2021-08-05 21:01:31,-32.7167,152.15,48.96,72,0,17.02,clear sky
336,Kudahuvadhoo,MV,2021-08-05 21:01:32,2.6708,72.8944,81.46,75,81,7.0,broken clouds
337,Verkhnevilyuysk,RU,2021-08-05 21:01:33,63.4453,120.3167,52.45,59,0,5.12,clear sky
338,Rocha,UY,2021-08-05 21:00:26,-34.4833,-54.3333,59.49,87,100,8.63,overcast clouds
339,Camana,PE,2021-08-05 21:01:34,-16.6228,-72.7111,65.16,76,4,6.96,clear sky
340,Bouca,CF,2021-08-05 21:01:34,6.5105,18.2733,71.17,93,93,0.85,overcast clouds
341,Cockburn Town,TC,2021-08-05 21:01:36,21.4612,-71.1419,82.99,79,63,18.86,broken clouds
342,Killybegs,IE,2021-08-05 21:01:36,54.6333,-8.45,60.46,94,99,2.62,overcast clouds
343,Ellensburg,US,2021-08-05 21:00:48,46.9965,-120.5479,97.25,13,1,20.33,clear sky
344,Barcelos,PT,2021-08-05 21:01:37,41.5388,-8.6151,68.85,93,1,4.65,clear sky
345,Beboto,TD,2021-08-05 21:01:37,8.2668,16.939,71.28,93,27,3.94,light rain
346,Lukovetskiy,RU,2021-08-05 21:01:37,64.2956,41.9211,39.18,96,3,1.45,clear sky
347,Terrace,CA,2021-08-05 21:01:18,54.5163,-128.6035,65.43,59,98,5.61,light rain
348,Las Guacamayas,MX,2021-08-05 21:01:38,18.0167,-102.2167,85.14,66,99,4.92,overcast clouds
349,Capreol,CA,2021-08-05 21:01:38,46.706,-80.9225,79.92,65,99,3.0,overcast clouds
350,Najran,SA,2021-08-05 21:01:39,17.4924,44.1277,86.38,32,100,7.85,overcast clouds
351,Mbini,GQ,2021-08-05 21:01:39,1.574,9.6134,76.66,85,75,5.41,light rain
352,Constitucion,CL,2021-08-05 21:01:39,-35.3333,-72.4167,55.36,78,94,5.3,overcast clouds
353,San Cristobal,VE,2021-08-05 21:01:40,7.7669,-72.225,77.63,62,38,7.07,scattered clouds
354,Salekhard,RU,2021-08-05 21:01:40,66.53,66.6019,61.41,80,97,6.17,overcast clouds
355,Tofield,CA,2021-08-05 21:01:41,53.3668,-112.6686,90.48,16,24,7.76,few clouds
356,Haines Junction,CA,2021-08-05 21:01:41,60.7522,-137.5108,70.03,59,84,4.25,light rain
357,Mitsamiouli,KM,2021-08-05 21:01:41,-11.3847,43.2844,76.26,70,6,5.41,clear sky
358,Matam,SN,2021-08-05 21:01:42,15.6175,-13.3303,92.98,49,19,8.75,few clouds
359,Emba,KZ,2021-08-05 21:01:42,48.8264,58.1442,86.02,23,97,6.4,overcast clouds
360,Villazon,BO,2021-08-05 21:01:43,-22.0866,-65.5942,56.66,8,2,11.48,clear sky
361,Kihei,US,2021-08-05 21:01:43,20.785,-156.4656,83.97,77,31,1.48,scattered clouds
362,College,US,2021-08-05 21:01:37,64.8569,-147.8028,82.0,51,1,3.0,clear sky
363,Aksarka,RU,2021-08-05 21:01:43,66.5606,67.7975,63.1,73,94,7.29,overcast clouds
364,Tiznit,MA,2021-08-05 21:01:44,29.5833,-9.5,71.31,72,7,2.26,clear sky
365,Waipawa,NZ,2021-08-05 21:01:45,-41.4122,175.5153,49.03,90,100,4.21,overcast clouds
366,Port Hardy,CA,2021-08-05 21:01:45,50.6996,-127.4199,58.98,93,100,6.6,light rain
367,Porto Murtinho,BR,2021-08-05 21:01:45,-21.6989,-57.8825,80.6,20,100,3.47,overcast clouds
368,Khovu-Aksy,RU,2021-08-05 21:01:45,51.1333,93.6,50.65,94,100,1.39,light rain
369,Luena,AO,2021-08-05 21:01:46,-11.7833,19.9167,56.1,27,0,3.4,clear sky
370,Damietta,EG,2021-08-05 21:01:47,31.4165,31.8133,83.73,65,0,3.06,clear sky
371,Flinders,AU,2021-08-05 21:01:47,-34.5833,150.8552,51.39,75,0,8.32,clear sky
372,Mariental,NA,2021-08-05 21:01:47,-24.6333,17.9667,60.08,18,8,10.22,clear sky
373,Los Llanos De Aridane,ES,2021-08-05 21:01:48,28.6585,-17.9182,69.55,95,20,16.11,few clouds
374,Lapeer,US,2021-08-05 21:01:48,43.0514,-83.3188,86.34,39,75,6.91,broken clouds
375,Hay River,CA,2021-08-05 21:01:49,60.8156,-115.7999,61.12,55,100,6.04,overcast clouds
376,Henties Bay,NA,2021-08-05 21:01:49,-22.116,14.2845,54.86,85,3,8.84,clear sky
377,Yatou,CN,2021-08-05 21:01:49,37.15,122.3833,72.75,95,100,6.98,light rain
378,Husavik,IS,2021-08-05 21:01:50,66.0449,-17.3389,52.74,83,73,5.68,broken clouds
379,Akyab,MM,2021-08-05 21:01:51,20.15,92.9,79.99,85,100,8.1,moderate rain
380,Ostersund,SE,2021-08-05 21:01:51,63.1792,14.6357,59.61,67,40,9.22,scattered clouds
381,Jumla,NP,2021-08-05 21:01:18,29.2747,82.1838,63.07,97,99,1.43,overcast clouds
382,Sao Joao,BR,2021-08-05 21:01:52,-8.8756,-36.3667,63.23,96,86,9.78,overcast clouds
383,Noumea,NC,2021-08-05 21:00:05,-22.2763,166.4572,69.01,99,66,9.44,broken clouds
384,Wenceslau Braz,BR,2021-08-05 21:01:52,-23.8739,-49.8028,61.12,61,100,10.78,overcast clouds
385,Mackay,AU,2021-08-05 21:01:53,-21.15,149.2,50.68,59,5,12.03,clear sky
386,Guider,CM,2021-08-05 21:01:53,9.9342,13.9486,74.71,87,63,3.38,moderate rain
387,Aklavik,CA,2021-08-05 21:01:55,68.2191,-135.0107,66.78,41,62,16.87,broken clouds
388,Santa Barbara,US,2021-08-05 21:01:55,34.7333,-120.0343,91.13,18,0,9.93,clear sky
389,Aras,ES,2021-08-05 21:01:56,42.5617,-2.356,70.21,60,0,10.36,clear sky
390,Mendoza,AR,2021-08-05 21:01:57,-32.8908,-68.8272,69.71,24,16,4.41,few clouds
391,Nurota,UZ,2021-08-05 21:01:59,40.5614,65.6886,77.09,21,0,8.39,clear sky
392,Cayenne,GF,2021-08-05 21:00:08,4.9333,-52.3333,82.44,78,0,6.91,clear sky
393,Sibu,MY,2021-08-05 21:01:59,2.3,111.8167,75.56,89,100,1.77,overcast clouds
394,Maloy,NO,2021-08-05 21:02:00,61.9353,5.1136,64.87,76,74,5.01,broken clouds
395,Torit,SS,2021-08-05 21:02:00,4.4133,32.5678,74.66,71,90,2.98,overcast clouds
396,Bima,ID,2021-08-05 21:02:00,-8.4667,118.7167,72.75,95,100,3.62,overcast clouds
397,Hwange,ZW,2021-08-05 21:02:01,-18.3693,26.5019,62.11,38,0,2.33,clear sky
398,Bairiki,KI,2021-08-05 21:02:02,1.3292,172.9752,82.69,64,8,12.26,clear sky
399,New Plymouth,NZ,2021-08-05 21:02:02,-39.0667,174.0833,52.05,94,78,5.93,broken clouds
400,Wawa,NG,2021-08-05 21:02:02,9.9022,4.4192,73.87,90,100,5.57,overcast clouds
401,Cabo San Lucas,MX,2021-08-05 21:02:03,22.8909,-109.9124,91.18,65,85,7.0,overcast clouds
402,Ust-Kuyga,RU,2021-08-05 21:02:03,70.0167,135.6,44.46,72,100,19.82,overcast clouds
403,Uruzgan,AF,2021-08-05 21:02:04,32.8333,66.0,73.17,21,0,5.1,clear sky
404,Skibotn,NO,2021-08-05 21:02:04,69.3913,20.2679,54.46,83,100,4.68,overcast clouds
405,Balkhash,KZ,2021-08-05 21:01:13,46.844,74.9804,73.26,44,6,14.61,clear sky
406,Plettenberg Bay,ZA,2021-08-05 21:02:04,-34.0527,23.3716,57.67,93,85,3.2,light rain
407,Sabang,ID,2021-08-05 21:02:05,5.8933,95.3214,83.39,74,100,21.3,overcast clouds
408,Victoria,HK,2021-08-05 21:00:58,22.2855,114.1577,82.45,95,100,11.01,moderate rain
409,Lerwick,GB,2021-08-05 21:02:05,60.1545,-1.1494,59.0,92,62,17.0,broken clouds
410,Houma,US,2021-08-05 20:59:58,29.5958,-90.7195,91.0,46,79,5.06,broken clouds
411,Khani,GE,2021-08-05 21:02:06,41.9563,42.9566,71.17,80,79,5.08,broken clouds
412,Jaffna,LK,2021-08-05 21:00:16,9.6685,80.0074,83.08,78,100,17.4,overcast clouds
413,Passa Quatro,BR,2021-08-05 21:02:06,-22.3903,-44.9667,58.28,66,88,2.71,overcast clouds
414,Trairi,BR,2021-08-05 20:58:13,-3.2778,-39.2689,79.45,74,69,12.75,broken clouds
415,Sangar,RU,2021-08-05 21:02:07,63.9242,127.4739,58.35,46,0,3.98,clear sky
416,Gornopravdinsk,RU,2021-08-05 21:02:07,60.05,69.9,62.17,86,100,1.45,overcast clouds
417,Torrington,US,2021-08-05 21:02:07,41.8007,-73.1212,79.66,82,100,4.18,overcast clouds
418,Elyria,US,2021-08-05 21:02:08,41.3684,-82.1077,85.48,46,0,3.78,clear sky
419,Vostok,RU,2021-08-05 21:02:08,46.4856,135.8833,65.43,97,100,4.07,overcast clouds
420,Mayo,US,2021-08-05 21:02:08,38.8876,-76.5119,90.86,51,7,3.0,clear sky
421,Mayya,RU,2021-08-05 21:02:09,61.7333,130.2811,54.72,49,30,5.01,scattered clouds
422,Grootfontein,NA,2021-08-05 21:02:09,-19.5667,18.1167,61.11,29,2,2.86,clear sky
423,Olafsvik,IS,2021-08-05 21:02:09,64.8945,-23.7142,56.05,80,19,5.53,few clouds
424,Itarema,BR,2021-08-05 21:02:10,-2.9248,-39.9167,79.68,73,41,13.73,scattered clouds
425,Safford,US,2021-08-05 21:02:11,32.834,-109.7076,98.06,24,1,4.61,clear sky
426,Chernyshevskiy,RU,2021-08-05 21:02:11,63.0128,112.4714,53.65,47,32,5.95,scattered clouds
427,Fukue,JP,2021-08-05 21:02:12,32.6881,128.8419,81.93,86,0,8.05,clear sky
428,Tessalit,ML,2021-08-05 21:02:13,20.1986,1.0114,93.4,35,66,12.95,broken clouds
429,Roald,NO,2021-08-05 21:01:15,62.5833,6.1333,59.9,63,0,10.36,clear sky
430,Tosya,TR,2021-08-05 21:02:13,41.0155,34.0401,69.71,69,0,2.21,clear sky
431,Nagato,JP,2021-08-05 21:02:14,34.3833,131.2,74.19,82,0,3.8,clear sky
432,Cooma,AU,2021-08-05 21:02:14,-36.2333,149.1333,31.6,95,2,2.42,clear sky
433,Shenzhen,CN,2021-08-05 21:01:35,22.5455,114.0683,82.35,98,100,5.44,overcast clouds
434,Evensk,RU,2021-08-05 21:02:14,61.95,159.2333,50.31,71,92,39.03,overcast clouds
435,Veraval,IN,2021-08-05 21:02:15,20.9,70.3667,81.18,82,100,15.37,overcast clouds
436,Alta Floresta,BR,2021-08-05 21:02:15,-9.8756,-56.0861,91.09,21,100,1.39,overcast clouds
437,Nantucket,US,2021-08-05 21:00:26,41.2835,-70.0995,74.97,94,100,16.37,overcast clouds
438,Port Keats,AU,2021-08-05 21:02:16,-14.25,129.55,66.33,24,95,13.2,overcast clouds
439,Sao Felix Do Xingu,BR,2021-08-05 21:02:16,-6.6447,-51.995,88.56,25,41,2.82,scattered clouds
440,Kattivakkam,IN,2021-08-05 21:02:16,13.2167,80.3167,80.69,68,100,14.76,overcast clouds
441,Prince Rupert,CA,2021-08-05 21:00:10,54.3161,-130.3201,63.0,73,100,6.38,light rain
442,Hambantota,LK,2021-08-05 21:02:17,6.1241,81.1185,79.05,82,98,17.58,overcast clouds
443,Griffith,US,2021-08-05 21:02:17,41.5284,-87.4237,86.95,43,1,1.01,clear sky
444,Ziro,IN,2021-08-05 21:02:18,27.6333,93.8333,57.94,96,75,2.75,broken clouds
445,Lavrentiya,RU,2021-08-05 21:02:18,65.5833,-171.0,53.67,95,100,5.68,moderate rain
446,Komsomolskiy,UZ,2021-08-05 21:02:19,40.4272,71.7189,78.22,31,34,9.22,scattered clouds
447,Tefe,BR,2021-08-05 21:02:19,-3.3542,-64.7114,90.64,45,48,1.86,scattered clouds
448,Darhan,MN,2021-08-05 21:02:19,49.4867,105.9228,61.63,83,66,3.51,broken clouds
449,Mossendjo,CG,2021-08-05 21:02:20,-2.9506,12.7261,70.61,83,38,5.28,scattered clouds
450,Coahuayana,MX,2021-08-05 21:02:20,18.7333,-103.6833,81.57,82,100,2.89,overcast clouds
451,Coquimbo,CL,2021-08-05 21:02:20,-29.9533,-71.3436,57.69,79,15,6.08,few clouds
452,Kuching,MY,2021-08-05 21:02:21,1.55,110.3333,79.02,89,40,2.3,scattered clouds
453,Faya,SA,2021-08-05 21:02:21,18.3851,42.4509,68.16,67,79,2.13,broken clouds
454,Lixourion,GR,2021-08-05 21:02:21,38.2019,20.4314,81.9,72,7,5.66,clear sky
455,Ancud,CL,2021-08-05 21:02:22,-41.8697,-73.8203,52.43,89,100,9.51,overcast clouds
456,Poso,ID,2021-08-05 21:02:22,-1.3959,120.7524,76.93,83,48,5.01,scattered clouds
457,Bundaberg,AU,2021-08-05 21:02:22,-24.85,152.35,53.22,77,60,1.99,broken clouds
458,Lasa,IT,2021-08-05 21:02:23,46.6166,10.7002,59.61,83,89,4.47,overcast clouds
459,Macau,MO,2021-08-05 21:02:23,22.2006,113.5461,82.2,94,40,6.91,light intensity shower rain
460,Hanstholm,DK,2021-08-05 21:02:23,57.1167,8.6167,61.63,74,92,14.27,overcast clouds
461,Arica,CL,2021-08-05 21:02:24,-18.475,-70.3042,64.26,73,7,6.8,clear sky
462,Porirua,NZ,2021-08-05 21:00:47,-41.1333,174.85,52.56,73,96,1.01,overcast clouds
463,Beyneu,KZ,2021-08-05 21:02:24,45.3167,55.2,92.32,20,96,5.21,overcast clouds
464,Ha Giang,VN,2021-08-05 21:02:25,22.8333,104.9833,79.72,86,100,3.38,overcast clouds
465,Prattville,US,2021-08-05 21:02:25,32.464,-86.4597,88.99,55,1,4.61,clear sky
466,El Real De Santa Maria,PA,2021-08-05 21:02:25,8.109,-77.7325,80.28,94,100,2.46,overcast clouds
467,Canals,ES,2021-08-05 21:00:09,38.9625,-0.5844,79.81,84,13,1.01,few clouds
468,Lac Du Bonnet,CA,2021-08-05 21:02:26,50.2536,-96.0612,64.58,65,90,14.27,overcast clouds
469,Chapais,CA,2021-08-05 21:02:27,49.7834,-74.8492,76.78,43,99,7.72,overcast clouds
470,Viedma,AR,2021-08-05 21:02:27,-40.8135,-62.9967,69.93,25,14,19.28,few clouds
471,Severnyy,RU,2021-08-05 21:02:27,50.677,36.5532,71.64,56,0,6.71,light rain
472,Bara,NG,2021-08-05 21:02:28,10.3744,10.7288,72.61,94,63,8.28,moderate rain
473,Mandalgovi,MN,2021-08-05 21:02:28,45.7625,106.2708,63.88,45,47,8.39,scattered clouds
474,Caxito,AO,2021-08-05 21:02:28,-8.5785,13.6643,71.22,90,14,2.75,few clouds
475,Jogindarnagar,IN,2021-08-05 21:02:28,31.9833,76.7667,71.28,83,9,4.81,clear sky
476,Malinovoye Ozero,RU,2021-08-05 21:02:29,51.6753,79.7825,64.31,64,79,5.79,broken clouds
477,Ahipara,NZ,2021-08-05 21:02:29,-35.1667,173.1667,56.41,84,48,14.74,scattered clouds
478,Visby,SE,2021-08-05 21:02:29,57.6409,18.296,64.94,82,0,6.91,clear sky
479,Babayurt,RU,2021-08-05 21:02:31,43.6002,46.7789,76.44,53,5,1.79,clear sky
480,Matara,LK,2021-08-05 21:02:31,5.9485,80.5353,77.9,87,98,13.24,overcast clouds
481,Olinda,BR,2021-08-05 21:02:31,-8.0089,-34.8553,73.13,88,75,5.75,mist
482,Esmeraldas,BR,2021-08-05 21:02:31,-19.7625,-44.3139,68.02,44,100,11.65,overcast clouds
483,Kenitra,MA,2021-08-05 21:02:32,34.261,-6.5802,72.84,79,0,4.61,clear sky
484,Vanimo,PG,2021-08-05 21:02:32,-2.6741,141.3028,75.88,88,16,4.41,few clouds
485,Sampang,ID,2021-08-05 21:02:33,-7.1872,113.2394,78.75,83,97,5.93,overcast clouds
486,Khorramabad,IR,2021-08-05 21:02:33,33.4878,48.3558,80.65,27,69,2.93,broken clouds
487,Gemlik,TR,2021-08-05 21:02:33,40.4309,29.1597,85.24,42,1,4.92,clear sky
488,Vila Real,PT,2021-08-05 21:02:34,41.3006,-7.7441,64.06,78,0,5.48,clear sky
489,Dharchula,IN,2021-08-05 21:02:34,29.85,80.5333,72.59,93,99,0.78,overcast clouds
490,Dudinka,RU,2021-08-05 21:02:34,69.4058,86.1778,63.23,65,93,5.26,overcast clouds
491,Missoula,US,2021-08-05 21:00:05,47.0166,-113.8009,88.3,13,2,4.09,clear sky
492,Whyalla,AU,2021-08-05 21:02:35,-33.0333,137.5833,54.23,68,100,2.3,overcast clouds
493,Nicoya,CR,2021-08-05 21:02:35,10.1483,-85.452,80.82,84,99,4.14,overcast clouds
494,Boende,CD,2021-08-05 21:02:36,-0.2167,20.8667,73.42,77,10,3.49,clear sky
495,Abu Zabad,SD,2021-08-05 21:02:36,12.35,29.25,82.31,59,92,8.48,overcast clouds
496,Bondo,CD,2021-08-05 21:02:37,3.8146,23.6866,68.74,99,57,2.98,light rain
497,Matagami,CA,2021-08-05 21:02:37,49.7502,-77.6328,80.71,61,75,8.05,broken clouds
498,Amapa,BR,2021-08-05 21:02:37,1.0,-52.0,76.3,81,100,0.45,overcast clouds
499,Eureka,US,2021-08-05 21:02:38,40.8021,-124.1637,75.67,74,59,7.0,broken clouds
500,Chone,EC,2021-08-05 21:02:38,-0.6833,-80.1,82.8,63,74,7.92,broken clouds
501,Durban,ZA,2021-08-05 21:02:38,-29.8579,31.0292,64.02,94,0,3.76,clear sky
502,Clyde River,CA,2021-08-05 21:02:39,70.4692,-68.5914,34.9,98,100,10.89,moderate rain
503,Aripuana,BR,2021-08-05 21:02:39,-9.1667,-60.6333,92.48,26,61,1.95,broken clouds
504,Stokmarknes,NO,2021-08-05 21:02:39,68.5646,14.9108,54.37,93,99,9.37,overcast clouds
505,Waddan,LY,2021-08-05 21:02:40,29.1614,16.139,92.86,13,38,8.59,scattered clouds
506,Resistencia,AR,2021-08-05 21:02:40,-27.4606,-58.9839,67.08,68,96,5.26,overcast clouds
507,Guanica,PR,2021-08-05 21:02:40,17.9716,-66.908,88.5,67,4,11.01,clear sky
508,Arkhangelskoye,RU,2021-08-05 21:02:41,55.8549,35.3287,55.76,98,75,5.5,broken clouds
509,Storforshei,NO,2021-08-05 21:02:41,66.4043,14.5233,54.66,81,20,2.3,few clouds
510,Longonjo,AO,2021-08-05 21:02:41,-12.9067,15.2533,65.35,26,0,0.81,clear sky
511,Montepuez,MZ,2021-08-05 21:02:42,-13.1256,38.9997,64.45,83,26,4.94,scattered clouds
512,Qaqortoq,GL,2021-08-05 21:02:42,60.7167,-46.0333,54.1,94,100,3.0,light rain
513,Villarrobledo,ES,2021-08-05 21:02:42,39.2699,-2.6012,82.78,22,0,8.57,clear sky
514,Muzhi,RU,2021-08-05 21:02:43,65.3667,64.6667,63.57,60,100,8.66,overcast clouds
515,Portree,GB,2021-08-05 21:02:43,57.4129,-6.1942,58.86,89,100,6.58,overcast clouds
516,Praya,CV,2021-08-05 21:02:43,14.9215,-23.5087,80.28,87,97,3.94,overcast clouds
517,Mezen,RU,2021-08-05 21:02:43,65.8522,44.24,47.75,95,100,4.47,overcast clouds
518,Altay,CN,2021-08-05 21:02:44,47.8667,88.1167,55.76,70,5,3.62,clear sky
519,Ambilobe,MG,2021-08-05 21:02:44,-13.2,49.05,70.81,67,56,2.86,broken clouds
520,Macas,EC,2021-08-05 20:59:16,-2.3167,-78.1167,76.75,57,75,1.14,broken clouds
521,High Level,CA,2021-08-05 21:01:36,58.5169,-117.136,75.61,43,64,7.96,broken clouds
522,Erzin,TR,2021-08-05 21:02:45,36.9559,36.2,81.12,68,44,0.87,scattered clouds
523,Xianyang,CN,2021-08-05 21:02:45,34.3378,108.7026,75.16,62,100,2.17,overcast clouds
524,Kaeo,NZ,2021-08-05 21:02:46,-35.1,173.7833,52.32,97,70,11.95,broken clouds
525,Ilebo,CD,2021-08-05 21:02:46,-4.3167,20.5833,75.85,32,0,0.96,clear sky
526,Bull Savanna,JM,2021-08-05 21:02:47,17.8868,-77.5902,84.45,58,65,17.87,broken clouds
527,Batemans Bay,AU,2021-08-05 21:02:47,-35.7167,150.1833,43.18,79,0,4.9,clear sky
528,Nioro,GM,2021-08-05 21:02:47,13.35,-15.75,79.86,80,53,4.59,broken clouds
529,At-Bashi,KG,2021-08-05 21:02:47,41.1702,75.8106,52.32,81,16,1.14,few clouds
530,Serebryanyy Bor,RU,2021-08-05 21:02:48,56.8,124.8,56.26,97,100,1.14,overcast clouds
531,Odweyne,SO,2021-08-05 21:02:48,9.4092,45.064,75.97,46,99,17.83,overcast clouds
532,Huilong,CN,2021-08-05 21:02:49,31.8111,121.655,83.03,89,24,8.12,few clouds
533,Arman,RU,2021-08-05 21:02:50,59.7,150.1667,54.16,56,84,15.08,broken clouds
534,Gezing,AT,2021-08-05 21:02:50,47.9178,13.1299,61.02,96,75,5.75,broken clouds
535,Road Town,VG,2021-08-05 21:02:51,18.4167,-64.6167,85.19,77,7,14.58,clear sky
536,Rocky Mount,US,2021-08-05 21:02:51,35.9382,-77.7905,86.34,45,1,4.61,clear sky
537,Remontnoye,RU,2021-08-05 21:02:51,46.5614,43.6501,79.21,30,20,14.05,few clouds
538,Carahue,CL,2021-08-05 21:02:52,-38.7,-73.1667,56.86,70,97,4.34,overcast clouds
539,Georgiyevskoye,RU,2021-08-05 21:02:52,58.731,45.024,55.94,62,74,3.15,broken clouds
540,Sao Joao Da Barra,BR,2021-08-05 21:02:53,-21.6403,-41.0511,68.74,80,85,9.01,overcast clouds
541,Kachug,RU,2021-08-05 21:02:53,53.9606,105.8817,54.64,85,76,1.39,broken clouds
542,Mitchell,US,2021-08-05 20:58:01,43.7094,-98.0298,89.74,17,55,8.03,broken clouds
543,Lagos,NG,2021-08-05 21:02:53,6.5833,3.75,73.44,93,100,2.19,overcast clouds
544,Carolina,PR,2021-08-05 21:02:54,18.3808,-65.9574,89.73,74,40,13.8,scattered clouds
545,Half Moon Bay,US,2021-08-05 21:02:54,37.4636,-122.4286,85.8,68,1,14.97,clear sky
546,Piacabucu,BR,2021-08-05 21:02:55,-10.4056,-36.4344,72.86,79,42,8.93,scattered clouds
547,Alberton,CA,2021-08-05 21:02:55,46.8168,-64.0654,63.46,98,100,5.99,overcast clouds
548,Saint-Pierre,RE,2021-08-05 21:02:55,-21.3393,55.4781,65.84,72,20,6.91,few clouds
549,Lompoc,US,2021-08-05 21:02:56,34.6391,-120.4579,91.22,60,1,20.71,clear sky
550,Dunedin,NZ,2021-08-05 21:00:50,-45.8742,170.5036,48.79,91,62,1.01,broken clouds
551,Bardiyah,LY,2021-08-05 21:02:56,31.7561,25.0865,82.15,73,0,15.7,clear sky
552,Pangody,RU,2021-08-05 21:02:57,65.85,74.4859,65.48,63,83,7.29,broken clouds
553,Anadyr,RU,2021-08-05 21:02:57,64.75,177.4833,48.7,87,40,8.01,scattered clouds
554,Zonguldak,TR,2021-08-05 21:02:58,41.25,31.8333,67.44,56,0,4.85,clear sky
555,Concarneau,FR,2021-08-05 21:02:58,47.875,-3.9225,61.57,90,99,20.11,overcast clouds
556,Leningradskiy,RU,2021-08-05 21:02:59,69.3833,178.4167,41.05,93,98,4.23,overcast clouds
557,Banda Aceh,ID,2021-08-05 21:02:59,5.5577,95.3222,80.42,74,96,13.71,overcast clouds
558,Phan Thiet,VN,2021-08-05 21:02:59,10.9333,108.1,76.44,92,100,9.95,overcast clouds
559,Guinticgan,PH,2021-08-05 21:03:00,11.5641,123.1236,80.85,80,95,13.69,overcast clouds
560,Lunenburg,CA,2021-08-05 21:03:00,44.3835,-64.3155,79.41,93,62,14.16,broken clouds
561,Nyurba,RU,2021-08-05 21:03:01,63.2842,118.3319,53.1,55,12,6.17,few clouds
562,Cocachacra,PE,2021-08-05 21:03:01,-17.0883,-71.7575,66.81,70,9,7.02,clear sky
563,Haysville,US,2021-08-05 21:03:01,37.5645,-97.3523,93.31,38,20,13.8,few clouds
564,Dukat,RU,2021-08-05 21:03:02,62.55,155.55,35.11,100,100,6.6,light rain
565,Krasnoselkup,RU,2021-08-05 21:03:03,65.7,82.4667,61.88,75,9,9.66,clear sky
566,Praia Da Vitoria,PT,2021-08-05 21:03:03,38.7333,-27.0667,75.76,88,16,11.36,few clouds
567,Candolim,IN,2021-08-05 21:03:04,15.5181,73.7626,80.31,82,100,16.87,overcast clouds
568,Beira,MZ,2021-08-05 21:03:05,-19.8436,34.8389,67.32,84,0,7.65,clear sky
569,Gornji Milanovac,RS,2021-08-05 21:03:05,44.0333,20.45,70.79,57,64,6.29,broken clouds
570,Goba,ET,2021-08-05 21:03:06,7.0167,39.9833,49.98,89,31,4.45,scattered clouds
571,Port Augusta,AU,2021-08-05 21:03:06,-32.5,137.7667,51.71,85,13,1.66,few clouds
572,Miandrivazo,MG,2021-08-05 21:03:07,-19.5167,45.4667,71.35,73,35,5.01,scattered clouds
573,Rorvik,NO,2021-08-05 21:03:07,64.8621,11.2373,55.51,88,0,8.05,clear sky
574,Medyn,RU,2021-08-05 21:03:07,54.9692,35.8586,60.73,89,85,5.1,overcast clouds
575,Wattens,AT,2021-08-05 21:03:08,47.2722,11.5993,56.98,94,75,1.14,broken clouds
576,Praia,CV,2021-08-05 21:03:08,14.9215,-23.5087,80.28,87,97,3.94,overcast clouds
577,Formosa,AR,2021-08-05 21:03:09,-26.1775,-58.1781,70.16,43,100,4.16,overcast clouds
578,Koumac,NC,2021-08-05 21:03:09,-20.5667,164.2833,68.72,62,90,14.45,overcast clouds
579,Morlaix,FR,2021-08-05 21:03:09,48.5833,-4.0,61.12,88,90,17.27,overcast clouds
580,Nevel,RU,2021-08-05 21:03:10,56.0209,29.9284,55.18,98,100,5.14,overcast clouds
581,Bansko,BG,2021-08-05 21:00:21,41.8383,23.4885,71.89,44,87,3.22,overcast clouds
582,Hobyo,SO,2021-08-05 21:03:10,5.3505,48.5268,76.1,84,83,28.01,broken clouds
583,Zhuzhou,CN,2021-08-05 21:03:11,27.8333,113.15,77.9,96,90,4.38,overcast clouds
584,Kanakapura,IN,2021-08-05 21:03:11,12.55,77.4167,70.86,83,100,12.44,overcast clouds
585,Devils Lake,US,2021-08-05 21:03:12,48.1128,-98.8651,77.11,37,42,14.23,scattered clouds
586,Anahuac,MX,2021-08-05 21:03:12,27.2333,-100.15,97.25,32,60,10.67,broken clouds
587,Escanaba,US,2021-08-05 21:03:12,45.7453,-87.0646,80.96,81,100,8.99,overcast clouds
588,Beohari,IN,2021-08-05 21:03:13,24.05,81.3833,76.28,92,94,9.13,moderate rain
589,Molnlycke,SE,2021-08-05 21:03:13,57.6589,12.1179,59.49,79,0,0.0,clear sky
590,Bom Jardim,BR,2021-08-05 21:03:14,-7.7958,-35.5872,68.13,94,51,9.04,broken clouds
591,Biak,ID,2021-08-05 21:03:14,-0.9131,122.8766,75.61,89,88,8.63,overcast clouds
592,Raton,US,2021-08-05 21:03:14,36.9034,-104.4391,85.05,25,1,1.01,clear sky
593,Napoleon,US,2021-08-05 21:03:15,41.3923,-84.1252,86.41,53,6,6.76,clear sky
594,Lahaina,US,2021-08-05 21:00:32,20.8783,-156.6825,83.95,80,8,9.22,clear sky
595,Leshukonskoye,RU,2021-08-05 21:03:15,64.8989,45.7622,48.22,93,100,4.45,overcast clouds
596,Iseyin,NG,2021-08-05 21:03:16,7.9667,3.6,70.27,98,100,2.68,overcast clouds
597,Porto Walter,BR,2021-08-05 21:03:16,-8.2686,-72.7439,93.42,19,2,3.89,clear sky
598,Bilma,NE,2021-08-05 21:03:17,18.6853,12.9164,98.17,17,7,5.99,clear sky
599,Smoky Lake,CA,2021-08-05 21:03:17,54.1169,-112.4686,89.49,19,13,2.68,few clouds
600,Zhaotong,CN,2021-08-05 21:03:17,27.3167,103.7167,62.65,87,97,0.45,overcast clouds
601,Chara,RU,2021-08-05 21:03:18,56.9064,118.2631,56.32,96,100,1.7,moderate rain
602,Karatau,KZ,2021-08-05 21:03:18,43.1667,70.4667,73.89,25,100,3.22,overcast clouds
603,Aanekoski,FI,2021-08-05 21:03:18,62.6946,25.818,50.68,100,49,1.41,scattered clouds
604,Terrasini,IT,2021-08-05 21:03:19,38.146,13.0844,80.22,61,0,3.44,clear sky
605,Wabash,US,2021-08-05 21:03:19,40.7978,-85.8205,84.51,52,26,5.79,scattered clouds
606,Pingliang,CN,2021-08-05 21:03:20,35.5392,106.6861,65.19,60,64,0.56,broken clouds
607,Liepaja,LV,2021-08-05 21:03:20,56.5419,21.0367,62.65,77,98,8.05,overcast clouds
608,Ginda,IN,2021-08-05 21:03:20,30.6945,78.4932,65.53,94,63,2.44,broken clouds
609,Lidkoping,SE,2021-08-05 21:03:21,58.5052,13.1577,61.54,86,100,7.02,overcast clouds
610,Onega,RU,2021-08-05 21:03:21,63.9061,38.1404,48.58,76,8,3.76,clear sky
611,Douglas,US,2021-08-05 20:58:22,41.3,-96.167,93.15,55,40,1.01,scattered clouds
612,Santa Helena De Goias,BR,2021-08-05 21:03:22,-17.8136,-50.5969,78.57,30,96,5.23,overcast clouds
613,Laguna,US,2021-08-05 21:03:23,38.421,-121.4238,94.14,44,1,4.0,clear sky
614,Mehamn,NO,2021-08-05 21:03:25,71.0357,27.8492,49.91,94,91,5.79,overcast clouds
615,Hofn,IS,2021-08-05 21:03:25,64.2539,-15.2082,52.88,90,99,6.31,overcast clouds
616,General Roca,AR,2021-08-05 21:03:25,-39.0333,-67.5833,70.3,19,73,6.96,broken clouds
617,Castlemaine,AU,2021-08-05 21:03:26,-37.0667,144.2167,48.04,81,100,6.87,overcast clouds
618,Manokwari,ID,2021-08-05 21:03:26,-0.8667,134.0833,78.53,78,95,4.76,overcast clouds
619,Kandalaksha,RU,2021-08-05 21:03:26,67.162,32.4123,54.14,82,94,2.64,overcast clouds
620,Porbandar,IN,2021-08-05 21:03:27,21.6422,69.6093,81.19,81,100,15.97,overcast clouds
621,Pervomayskoye,RU,2021-08-05 21:03:27,43.919,46.7102,76.82,43,6,4.27,clear sky
622,Nouadhibou,MR,2021-08-05 21:03:29,20.931,-17.0347,69.82,87,5,25.72,clear sky
623,Okhotsk,RU,2021-08-05 21:03:29,59.3833,143.3,55.47,80,1,8.48,clear sky
624,Flin Flon,CA,2021-08-05 21:03:29,54.7682,-101.865,76.51,30,65,4.29,broken clouds
625,Talnakh,RU,2021-08-05 21:03:30,69.4865,88.3972,64.62,69,80,2.53,broken clouds
626,South Lake Tahoe,US,2021-08-05 21:02:02,38.9332,-119.9844,88.83,11,1,21.85,clear sky
627,Boshkengash,TJ,2021-08-05 21:03:30,38.4661,68.8053,71.94,43,20,6.71,few clouds
628,Tolaga Bay,NZ,2021-08-05 21:03:30,-38.3667,178.3,51.62,84,83,3.44,broken clouds
629,Bandarbeyla,SO,2021-08-05 21:03:31,9.4942,50.8122,76.28,84,82,32.79,broken clouds
630,Jiwani,PK,2021-08-05 21:03:31,25.05,61.7417,81.37,85,36,3.96,scattered clouds
631,Hit,IQ,2021-08-05 21:03:32,33.6416,42.8251,99.99,16,25,11.86,scattered clouds
632,Egvekinot,RU,2021-08-05 21:03:32,66.3167,-179.1667,45.99,96,100,3.31,moderate rain
633,Cabedelo,BR,2021-08-05 21:03:33,-6.9811,-34.8339,75.47,83,27,16.22,scattered clouds
634,Suluq,LY,2021-08-05 21:03:33,31.6682,20.2521,86.43,50,4,9.86,clear sky
635,Santa Catarina De Tepehuanes,MX,2021-08-05 21:03:33,25.35,-105.7333,73.63,58,92,8.97,overcast clouds
636,Marsa Matruh,EG,2021-08-05 21:03:34,31.3525,27.2453,82.09,77,0,14.47,clear sky
637,Rostovka,RU,2021-08-05 21:03:34,55.3842,71.8891,61.99,76,93,4.29,overcast clouds
638,Changtu,CN,2021-08-05 21:03:34,42.7788,124.0955,66.4,98,100,3.42,light rain
639,Villefranche-De-Rouergue,FR,2021-08-05 21:03:35,44.3333,2.0,65.17,87,97,2.66,overcast clouds
640,Conceicao Da Barra,BR,2021-08-05 21:03:35,-18.5933,-39.7322,70.27,69,63,8.46,broken clouds
641,Boguchany,RU,2021-08-05 21:03:35,58.3814,97.4531,57.16,71,21,3.22,few clouds
642,Vestmanna,FO,2021-08-05 21:03:36,62.1564,-7.1664,54.52,94,90,3.44,overcast clouds
643,Deolali,IN,2021-08-05 21:03:36,19.95,73.8333,73.62,89,100,12.19,overcast clouds
644,Yuryev-Polskiy,RU,2021-08-05 21:03:37,56.5,39.6833,58.89,88,100,7.92,light rain
645,Orje,NO,2021-08-05 21:03:37,59.4802,11.6602,60.04,74,96,1.88,overcast clouds
646,Koslan,RU,2021-08-05 21:03:37,63.4564,48.8989,46.56,93,31,4.76,scattered clouds
647,Chulman,RU,2021-08-05 21:03:38,56.8479,124.9104,56.28,97,100,1.19,overcast clouds
648,Batagay,RU,2021-08-05 21:03:38,67.6333,134.6333,47.1,64,6,2.19,clear sky
649,Cartagena Del Chaira,CO,2021-08-05 21:03:38,1.3349,-74.8429,83.7,56,77,1.74,broken clouds
650,Bastia,FR,2021-08-05 21:03:39,42.6667,9.3333,75.0,66,0,1.99,clear sky
651,Fort Nelson,CA,2021-08-05 21:00:09,58.8053,-122.7002,76.96,49,43,3.38,scattered clouds
652,Santiago Del Estero,AR,2021-08-05 21:01:40,-27.7951,-64.2615,71.8,20,51,9.44,broken clouds
653,Meadow Lake,US,2021-08-05 21:03:39,34.8014,-106.5436,92.61,24,0,8.12,clear sky
654,Arlit,NE,2021-08-05 21:03:40,18.7369,7.3853,89.83,41,22,14.63,few clouds
655,Tashara,RU,2021-08-05 21:03:40,55.5195,83.5094,61.23,99,100,3.89,light rain
656,Bengkulu,ID,2021-08-05 21:03:40,-3.8004,102.2655,75.09,89,94,3.36,overcast clouds
657,Bonthe,SL,2021-08-05 21:03:06,7.5264,-12.505,76.93,82,100,13.62,light rain
658,Sergeyevka,KZ,2021-08-05 21:03:41,53.88,67.4158,64.58,85,100,8.16,overcast clouds
659,Gorele,TR,2021-08-05 21:03:42,41.0308,39.0031,78.24,84,0,4.47,clear sky
660,Nuuk,GL,2021-08-05 21:03:42,64.1835,-51.7216,47.01,87,75,41.43,moderate rain
661,Ambon,ID,2021-08-05 21:03:43,-3.6954,128.1814,77.14,94,40,6.91,scattered clouds
662,Novyy Urengoy,RU,2021-08-05 21:03:43,66.0833,76.6333,63.95,67,2,5.64,clear sky
663,Havoysund,NO,2021-08-05 21:03:43,70.9963,24.6622,50.88,92,91,4.63,overcast clouds
664,Sorland,NO,2021-08-05 21:03:44,67.667,12.6934,53.83,91,100,10.78,overcast clouds
665,Petropavlovsk-Kamchatskiy,RU,2021-08-05 21:03:44,53.0452,158.6483,52.39,58,0,11.18,clear sky
666,Chimbote,PE,2021-08-05 21:03:44,-9.0853,-78.5783,68.27,74,27,11.86,scattered clouds
667,Kuala Pilah,MY,2021-08-05 21:03:45,2.7389,102.2487,77.95,91,88,1.5,overcast clouds
668,Caravelas,BR,2021-08-05 21:03:45,-17.7125,-39.2481,70.86,72,99,10.56,overcast clouds
669,Eyl,SO,2021-08-05 21:03:45,7.9803,49.8164,77.22,76,64,26.44,broken clouds
670,Zyryanka,RU,2021-08-05 21:03:46,65.75,150.85,43.81,81,100,14.05,overcast clouds
671,Poum,NC,2021-08-05 21:03:46,-20.2333,164.0167,69.6,65,99,20.92,overcast clouds
672,Karoi,ZW,2021-08-05 21:03:46,-16.8099,29.6925,56.07,45,0,2.77,clear sky
673,Antofagasta,CL,2021-08-05 21:03:36,-23.65,-70.4,66.22,61,6,5.1,clear sky
674,Boralday,KZ,2021-08-05 21:03:47,43.3578,76.8594,67.86,45,20,4.47,few clouds
675,Gidole,ET,2021-08-05 21:03:47,5.65,37.3667,62.04,55,100,3.6,overcast clouds
676,Panzhihua,CN,2021-08-05 21:03:48,26.5851,101.7128,69.4,89,100,1.28,overcast clouds
677,Pierre,US,2021-08-05 21:01:07,44.3683,-100.351,99.0,30,6,1.99,clear sky
678,Kinel-Cherkassy,RU,2021-08-05 21:03:48,53.4706,51.4743,63.27,63,63,5.01,broken clouds
679,Kawhia,NZ,2021-08-05 21:03:48,-38.0651,174.8183,55.38,88,99,9.66,overcast clouds
680,Duncan,US,2021-08-05 21:00:00,34.5023,-97.9578,87.06,56,40,5.75,scattered clouds
681,Omboue,GA,2021-08-05 21:02:33,-1.5746,9.2618,76.05,81,40,8.43,scattered clouds
682,Energetik,RU,2021-08-05 21:03:49,51.7445,58.7934,74.46,51,66,5.75,broken clouds
683,Dalvik,IS,2021-08-05 21:03:50,65.9702,-18.5286,52.66,87,91,4.41,overcast clouds
684,Sumter,US,2021-08-05 21:03:50,28.7086,-82.0831,87.12,81,99,11.5,overcast clouds
685,Edea,CM,2021-08-05 21:03:50,3.8,10.1333,73.44,97,93,1.52,light rain
686,Kindu,CD,2021-08-05 21:03:51,-2.95,25.95,79.3,53,39,3.15,scattered clouds
687,Sao Paulo De Olivenca,BR,2021-08-05 21:03:51,-3.3783,-68.8725,85.75,52,70,3.2,broken clouds
688,Moyo,UG,2021-08-05 21:03:51,3.6609,31.7247,72.36,67,100,2.06,overcast clouds
689,Pietarsaari,FI,2021-08-05 21:03:52,63.65,22.6833,60.89,81,28,4.18,scattered clouds
690,Morogoro,TZ,2021-08-05 21:03:52,-6.8167,37.6667,68.94,76,86,3.4,overcast clouds
691,Gravdal,NO,2021-08-05 21:03:52,68.1214,13.5031,52.72,93,100,9.13,overcast clouds
692,Pisco,PE,2021-08-05 21:03:53,-13.7,-76.2167,64.02,85,3,8.12,clear sky
693,Port Shepstone,ZA,2021-08-05 21:03:53,-30.7414,30.455,63.54,86,5,9.28,clear sky
694,Anshun,CN,2021-08-05 21:03:54,26.25,105.9333,67.46,85,59,2.01,broken clouds
695,Saint Cloud,US,2021-08-05 21:03:54,45.5608,-94.1625,86.45,48,1,11.5,clear sky
696,Copiapo,CL,2021-08-05 21:03:54,-27.3667,-70.3333,75.61,36,0,4.34,clear sky
697,Rio Grande,BR,2021-08-05 21:03:28,-32.035,-52.0986,61.95,90,100,12.62,overcast clouds
698,Lincoln,US,2021-08-05 21:00:04,40.8,-96.667,94.01,43,20,4.0,few clouds
699,Tuy Hoa,VN,2021-08-05 21:03:55,13.0833,109.3,83.57,68,100,17.09,overcast clouds
